{
  "type": "FeatureCollection",
  "features": [
    {
      "type": "Feature",
      "properties": {"name": "Delhi", "power": 50, "radius": 22000, "freq": 1800},
      "geometry": {
        "type": "Point",
        "coordinates": [77.1025, 28.7041]
      }
    },
    {
      "type": "Feature",
      "properties": {"name": "Mumbai", "power": 45, "radius": 20000, "freq": 1800},
      "geometry": {
        "type": "Point",
        "coordinates": [72.8777, 19.0760]
      }
    },
    {
      "type": "Feature",
      "properties": {"name": "Pune", "power": 40, "radius": 18000, "freq": 2300},
      "geometry": {
        "type": "Point",
        "coordinates": [73.8567, 18.5204]
      }
    },
    {
      "type": "Feature",
      "properties": {"name": "Bangalore", "power": 55, "radius": 25000, "freq": 1800},
      "geometry": {
        "type": "Point",
        "coordinates": [77.5946, 12.9716]
      }
    },
    {
      "type": "Feature",
      "properties": {"name": "Hyderabad", "power": 42, "radius": 19000, "freq": 1800},
      "geometry": {
        "type": "Point",
        "coordinates": [78.4867, 17.3850]
      }
    },
    {
      "type": "Feature",
      "properties": {"name": "Chennai", "power": 44, "radius": 20000, "freq": 1800},
      "geometry": {
        "type": "Point",
        "coordinates": [80.2707, 13.0827]
      }
    },
    {
      "type": "Feature",
      "properties": {"name": "Kolkata", "power": 41, "radius": 19000, "freq": 1800},
      "geometry": {
        "type": "Point",
        "coordinates": [88.3639, 22.5726]
      }
    }
  ]
}